Name,State,Latitude,Longitude,Status,Commodity Group,,,,,
Abercorn,QLD,-25.1351,151.1312,Mineral deposit,High Purity Alumina,,,,,
Adamsfield,TAS,-42.7279,146.3296,Mineral deposit,Platinum Group Elements (PGE) +/- Cobalt +/- Nickel,,,,,
Agricola,SA,-36.1867,139.6796,Operating mine,Magnesium,,,,,
Albany,WA,-34.6968,118.5312,Mineral deposit,Silicon (High purity silica/quartz),,,,,
Ambergate,WA,-34.0271,115.1290,Mineral deposit,"Heavy mineral sands - Titanium, Zirconium",,,,,
Andover,WA,-20.8545,117.1182,Mineral deposit,Nickel +/- Cobalt +/- PGE,,,,,
Anduramba,QLD,-27.1409,152.1079,Mineral deposit,Molybdenum +/- Rhenium,,,,,
Ant Hill,WA,-22.0909,120.5950,Mine - care and maintenance,Manganese Ore,,,,,
Anthony,QLD,-22.3107,147.2816,Mineral deposit,Molybdenum +/- Rhenium,,,,,
Area 55,NT,-13.0139,130.9674,Mineral deposit,Nickel +/- Cobalt +/- PGE,,,,,
Arrowmith Central,WA,-29.6561,115.1692,Mineral deposit,Silicon (High purity silica/quartz),,,,,
Arrowsmith North,WA,-29.5129,115.1104,Mineral deposit,Silicon (High purity silica/quartz),,,,,
Atacama,SA,-30.7906,132.2773,Mineral deposit,"Heavy mineral sands - Titanium, Zirconium",,,,,
Atlas,WA,-30.5382,115.2489,Mine - under development,"Heavy mineral sands - Titanium, Zirconium",,,,,
Atlas-Campaspe,NSW,-33.8833,143.3500,Operating mine,"Heavy mineral sands - Titanium, Zirconium",,,,,
Attunga,NSW,-30.9167,150.9337,Mineral deposit,"Tungsten, Molybdenum",,,,,
Australian Vanadium,WA,-26.9676,118.6463,Mine - under development,"Titanium, Vanadium",,,,,
Avebury,TAS,-41.9201,145.2485,Operating mine,Nickel +/- Cobalt +/- PGE,,,,,
Avonbank,VIC,-36.6370,142.3089,Mine - under development,"Heavy mineral sands - Titanium, Zirconium, REE",,,,,
Baal Gammon,QLD,-17.3805,145.3269,Mine - care and maintenance,Indium,,,,,
Balcanoona,SA,-30.5271,139.3000,Mineral deposit,Magnesium,,,,,
Bald Hill,WA,-31.5198,122.1785,Operating mine,Lithium +/- Tantalum +/- Niobium,,,,,
Balla Balla,WA,-20.7660,117.7757,Mineral deposit,"Titanium, Vanadium",,,,,
Balranald,NSW,-34.4599,143.4612,Mine - under development,"Heavy mineral sands - Titanium, Zirconium",,,,,
Bandalup,WA,-33.6086,120.3583,Mineral deposit,Magnesium,,,,,
Barbara,QLD,-20.4206,139.8517,Mine - care and maintenance,Cobalt,,,,,
Barnes Hill,TAS,-41.2212,146.7726,Mineral deposit,Nickel +/- Cobalt +/- PGE,,,,,
Barrambie,WA,-27.4332,119.1211,Mine - under development,"Titanium, Vanadium",,,,,
Barrow Creek,NT,-21.5167,134.1500,Mineral deposit,Nickel +/- Cobalt +/- PGE,,,,,
Barton,SA,-30.5293,132.6789,Mineral deposit,"Heavy mineral sands - Titanium, Zirconium",,,,,
Basil,NT,-23.4129,135.3134,Mineral deposit,Cobalt,,,,,
Beharra,WA,-29.4360,115.1115,Mineral deposit,Silicon (High purity silica/quartz),,,,,
Ben Lomond,QLD,-19.3770,146.3000,Mineral deposit,Molybdenum +/- Rhenium,,,,,
Beta Hunt,WA,-31.2403,121.6939,Operating mine,Nickel +/- Cobalt +/- PGE,,,,,
Beyondie,WA,-23.1187,120.5514,Mineral deposit,Manganese Ore,,,,,
Bidaminna,WA,-31.1005,115.6034,Mineral deposit,"Heavy mineral sands - Titanium, Zirconium, REE",,,,,
Bielsdown,NSW,-30.2256,152.7203,Mineral deposit,Antimony,,,,,
Big Hill-Cookes Creek,WA,-21.6558,120.4625,Mineral deposit,Tungsten,,,,,
Bigrlyi,NT,-22.2202,131.0432,Mineral deposit,Vanadium,,,,,
Birthday Gift-Triangle,NSW,-33.4838,142.9037,Mineral deposit,"Heavy mineral sands - Titanium, Zirconium",,,,,
Black Swan,WA,-30.3934,121.6520,Mine - care and maintenance,Nickel +/- Cobalt +/- PGE,,,,,
Blackwater,TAS,-41.1101,144.9469,Operating mine,Silicon (High purity silica/quartz),,,,,
Blue Spec,WA,-21.8209,120.2730,Mine - under development,Antimony,,,,,
Bold Head,TAS,-40.0260,144.0669,Mineral deposit,Tungsten,,,,,
Boonanarring,WA,-31.2237,115.8346,Operating mine,"Heavy mineral sands - Titanium, Zirconium",,,,,
Bootu Creek,NT,-18.6998,134.1258,Mine - care and maintenance,Manganese Ore,,,,,
Bowry Creek,TAS,-41.5584,145.1710,Mineral deposit,Magnesium,,,,,
Broadhurst,WA,-22.2293,122.2180,Mineral deposit,Cobalt,,,,,
Brockman,WA,-18.3209,127.7837,Mineral deposit,"REE, Zirconium, Niobium, +/- Hafnium, Lithium, Tantalum, Gallium",,,,,
Broken Hill,NSW,-32.0564,141.7906,Mineral deposit,Cobalt,,,,,
Broken Hill Cobalt,NSW,-32.0930,141.1938,Mineral deposit,Nickel +/- Cobalt +/- PGE,,,,,
Brolga,QLD,-23.0302,150.3000,Mineral deposit,Nickel +/- Cobalt +/- PGE,,,,,
Browns,NT,-12.9939,130.9975,Mineral deposit,Nickel +/- Cobalt +/- PGE,,,,,
Browns Range,WA,-18.8595,128.9398,Mine - care and maintenance,Rare Earth Elements (REE),,,,,
Bryah Basin,WA,-25.4252,118.4333,Mineral deposit,Manganese Ore,,,,,
Buldania,WA,-32.0695,122.0916,Mineral deposit,Lithium +/- Tantalum +/- Niobium,,,,,
Bulong,WA,-30.6904,121.8220,Mineral deposit,Nickel +/- Cobalt +/- PGE,,,,,
Bungalally,VIC,-36.8002,142.2488,Mineral deposit,"Heavy mineral sands - Titanium, Zirconium, REE",,,,,
Bungonia,NSW,-34.7977,149.8714,Mineral deposit,Cobalt,,,,,
Burke,QLD,-19.6149,140.2170,Mineral deposit,Graphite,,,,,
Burns Central,WA,-31.1823,122.0260,Mineral deposit,Cobalt,,,,,
Burracoppin,WA,-31.6973,118.7120,Mineral deposit,Rare Earth Elements (REE),,,,,
Butcherbird-Yanneri,WA,-24.4082,119.7068,Operating mine,Manganese Ore,,,,,
Byro East,WA,-26.0323,116.3791,Mineral deposit,Nickel +/- Cobalt +/- PGE,,,,,
Cadia East,NSW,-33.4650,149.0123,Operating mine,Molybdenum +/- Rhenium,,,,,
Cadoux,WA,-30.6772,117.1930,Mine - under development,High Purity Alumina,,,,,
Callisto,WA,-32.0980,121.6546,Mineral deposit,Platinum Group Elements (PGE) +/- Cobalt +/- Nickel,,,,,
Camel Creek,QLD,-18.8169,145.5625,Mineral deposit,Antimony,,,,,
Camel Flat,SA,-30.5649,138.3703,Mineral deposit,Magnesium,,,,,
Camelback Bore,WA,-29.1732,122.2539,Mineral deposit,Nickel +/- Cobalt +/- PGE,,,,,
Campoona,SA,-33.5279,136.4790,Mineral deposit,Graphite,,,,,
Canegrass,WA,-30.2046,120.9849,Mineral deposit,Nickel +/- Cobalt +/- PGE,,,,,
Canegrass,WA,-28.3571,118.4011,Mineral deposit,Vanadium,,,,,
Cangai,NSW,-29.5001,152.4897,Mineral deposit,Cobalt,,,,,
Canoona,QLD,-23.0797,150.2659,Mineral deposit,Nickel +/- Cobalt +/- PGE,,,,,
Cape Flattery,QLD,-14.9600,145.3300,Mineral deposit,Silicon (High purity silica/quartz),,,,,
Cape Flattery,QLD,-14.9850,145.3228,Operating mine,Silicon (High purity silica/quartz),,,,,
Capricorn Copper,QLD,-19.6975,139.3659,Operating mine,Cobalt,,,,,
Caravel,WA,-30.9696,116.6188,Mineral deposit,Molybdenum +/- Rhenium,,,,,
Carboona,NSW,-35.8249,147.7237,Mineral deposit,Fluorine,,,,,
Carlingup,WA,-33.5727,120.2209,Mineral deposit,Nickel +/- Cobalt +/- PGE,,,,,
Carlow Castle,WA,-20.8108,117.0665,Mineral deposit,Cobalt,,,,,
Carr Boyd,WA,-30.0659,121.6261,Mineral deposit,Platinum Group Elements (PGE) +/- Cobalt +/- Nickel,,,,,
Cassini,WA,-31.7009,121.6211,Operating mine,Nickel +/- Cobalt +/- PGE,,,,,
Cataby,WA,-30.7351,115.5387,Operating mine,"Heavy mineral sands - Titanium, Zirconium",,,,,
Cawse,WA,-30.3689,121.1485,Mine - care and maintenance,Nickel +/- Cobalt +/- PGE,,,,,
Celia,NT,-13.0316,131.0649,Mineral deposit,Magnesium,,,,,
Champion Road,TAS,-41.1265,145.4345,Mineral deposit,Silicon (High purity silica/quartz),,,,,
Charley Creek,NT,-23.5011,132.8747,Mineral deposit,"Heavy mineral sands - Titanium, Zirconium, REE",,,,,
Circle Valley,WA,-32.9921,121.8910,Mineral deposit,Rare Earth Elements (REE),,,,,
Claude Hills,SA,-26.0110,129.1756,Mineral deposit,Nickel +/- Cobalt +/- PGE,,,,,
Cleveland,TAS,-41.4770,145.3850,Mineral deposit,Tungsten,,,,,
Cliffs,WA,-27.3105,120.5528,Operating mine,Nickel +/- Cobalt +/- PGE,,,,,
Coates,WA,-31.7425,116.4129,Mineral deposit,Vanadium,,,,,
Coburn,WA,-26.7038,114.1270,Operating mine,"Heavy mineral sands - Titanium, Zirconium",,,,,
Coglia,WA,-29.0110,122.9884,Mineral deposit,Nickel +/- Cobalt +/- PGE,,,,,
Conrad,NSW,-29.9549,151.0244,Mineral deposit,Indium,,,,,
Contact,WA,-22.2637,121.1711,Mineral deposit,Manganese Ore,,,,,
Cooljarloo,WA,-30.6352,115.4242,Operating mine,"Heavy mineral sands - Titanium, Zirconium",,,,,
Coolup,WA,-32.7229,115.9411,Mineral deposit,"Heavy mineral sands - Titanium, Zirconium",,,,,
Copernicus,WA,-17.6588,127.9910,Mineral deposit,Nickel +/- Cobalt +/- PGE,,,,,
Copi,NSW,-33.6199,141.3496,Mineral deposit,"Heavy mineral sands - Titanium, Zirconium",,,,,
Copperhead,QLD,-20.5400,148.3100,Mineral deposit,Molybdenum +/- Rhenium,,,,,
Corella,QLD,-20.7175,140.2068,Mineral deposit,Graphite,,,,,
Corinna,TAS,-41.6224,145.1120,Operating mine,Silicon (High purity silica/quartz),,,,,
Corkwood,WA,-17.2950,128.1877,Mineral deposit,Nickel +/- Cobalt +/- PGE,,,,,
Coronation Dam,WA,-29.5235,122.2705,Mineral deposit,Nickel +/- Cobalt +/- PGE,,,,,
Coronation Hill,NT,-13.5862,132.6074,Mineral deposit,Platinum Group Elements (PGE) +/- Cobalt +/- Nickel,,,,,
Cosmos ,WA,-27.6003,120.5763,Mine - under development,Nickel +/- Cobalt +/- PGE,,,,,
Costerfield,VIC,-36.8901,144.7910,Operating mine,Antimony,,,,,
Cowalinya,WA,-32.9100,122.2900,Mineral deposit,Rare Earth Elements (REE),,,,,
Creswick,VIC,-37.3204,143.8943,Mineral deposit,Silicon (High purity silica/quartz),,,,,
Cummins Range,WA,-19.2849,127.1666,Mineral deposit,Rare Earth Elements (REE),,,,,
Cyclone,WA,-28.8171,128.7322,Mine - under development,"Heavy mineral sands - Titanium, Zirconium",,,,,
Cylinder-Karra,NSW,-34.1419,143.0801,Mineral deposit,"Heavy mineral sands - Titanium, Zirconium",,,,,
Debella,QLD,-19.9586,141.8890,Mineral deposit,"Vanadium, Molybdenum",,,,,
Deep Leads,TAS,-41.4600,146.7400,Mineral deposit,Rare Earth Elements (REE),,,,,
Desolation,QLD,-21.0479,140.5565,Mineral deposit,Cobalt,,,,,
Diggers Area,WA,-32.7158,119.8104,Mineral deposit,Nickel +/- Cobalt +/- PGE,,,,,
Dolphin,TAS,-40.0533,144.0587,Operating mine,Tungsten,,,,,
Donald,VIC,-36.4994,142.7815,Mine - under development,"Heavy mineral sands - Titanium, Zirconium, REE",,,,,
Dongara,WA,-29.4315,115.1429,Mineral deposit,"Heavy mineral sands - Titanium, Zirconium",,,,,
Dubbo,NSW,-32.4643,148.6235,Mine - under development,"REE, Zirconium, Niobium, +/- Hafnium, Lithium, Tantalum, Gallium",,,,,
Earaheedy,WA,-25.6570,120.6262,Mineral deposit,Manganese Ore,,,,,
East Cooee,WA,-31.3444,121.7889,Mineral deposit,Nickel +/- Cobalt +/- PGE,,,,,
East Scotia,WA,-31.1823,121.4570,Mineral deposit,Nickel +/- Cobalt +/- PGE,,,,,
Eastern Hills,WA,-22.8362,116.1233,Mineral deposit,Antimony,,,,,
Elaine Dorothy,QLD,-20.8028,140.0228,Mineral deposit,Rare Earth Elements (REE),,,,,
Emmie Bluff,SA,-31.1051,137.1544,Mineral deposit,Cobalt,,,,,
Enacheddong Creek,WA,-22.1312,121.1978,Mineral deposit,Manganese Ore,,,,,
Eneabba stockpile,WA,-29.8881,115.3037,Operating mine,"Heavy mineral sands - Titanium, Zirconium, REE",,,,,
Ernest Henry,QLD,-20.4447,140.7058,Operating mine,Cobalt,,,,,
Eulogie,QLD,-23.8453,150.4344,Mineral deposit,Vanadium,,,,,
Faraday,WA,-31.4844,121.5327,Mineral deposit,Lithium +/- Tantalum +/- Niobium,,,,,
Fingerboards,VIC,-37.7909,147.3112,Mineral deposit,"Heavy mineral sands - Titanium, Zirconium, REE",,,,,
Finniss,NT,-12.6667,130.7775,Operating mine,Lithium +/- Tantalum +/- Niobium,,,,,
Fisher East,WA,-26.8035,121.5537,Mineral deposit,Nickel +/- Cobalt +/- PGE,,,,,
Flanagan Bore,WA,-22.9701,120.8394,Mineral deposit,Manganese Ore,,,,,
Flemington,NSW,-32.7431,147.3926,Mineral deposit,Scandium +/- Cobalt +/- PGE +/- Nickel,,,,,
Flying Fox,WA,-32.4185,119.6890,Operating mine,Nickel +/- Cobalt +/- PGE,,,,,
Foster-Baker,WA,-31.3480,121.7965,Mineral deposit,Nickel +/- Cobalt +/- PGE,,,,,
Four Corners ,WA,-29.3144,120.6000,Mineral deposit,Nickel +/- Cobalt +/- PGE,,,,,
Frost,WA,-30.0584,121.6400,Mineral deposit,Nickel +/- Cobalt +/- PGE,,,,,
Gabanintha,WA,-26.9418,118.6325,Mine - under development,"Titanium, Vanadium",,,,,
Galalar,QLD,-15.3170,145.2779,Mineral deposit,Silicon (High purity silica/quartz),,,,,
Galileo,VIC,-34.9608,142.4280,Mineral deposit,"Heavy mineral sands - Titanium, Zirconium",,,,,
Gallipoli,NSW,-33.4711,142.3353,Mineral deposit,"Heavy mineral sands - Titanium, Zirconium",,,,,
Ghan Well,WA,-28.8710,122.1320,Mineral deposit,Nickel +/- Cobalt +/- PGE,,,,,
Ghost Rocks,WA,-29.5275,120.8713,Mineral deposit,Nickel +/- Cobalt +/- PGE,,,,,
Gibson,WA,-33.5960,122.0053,Mineral deposit,High Purity Alumina,,,,,
Gilligans,NSW,-33.6674,142.0185,Mineral deposit,"Heavy mineral sands - Titanium, Zirconium",,,,,
Ginkgo-Crayfish-Snapper,NSW,-33.3659,142.2247,Operating mine,"Heavy mineral sands - Titanium, Zirconium",,,,,
Glen Eden,NSW,-29.6227,151.8637,Mineral deposit,Tungsten,,,,,
Glenella,NSW,-33.9509,148.8305,Mineral deposit,Silicon (High purity silica/quartz),,,,,
Golden Ridge,WA,-30.9106,121.7167,Mineral deposit,Nickel +/- Cobalt +/- PGE,,,,,
Goodyear Nickel,WA,-31.0363,121.8035,Mineral deposit,Nickel +/- Cobalt +/- PGE,,,,,
Goondicum Crater,QLD,-24.8557,151.4339,Mineral deposit,Titanium,,,,,
Goongarrie,WA,-30.0085,121.1476,Mineral deposit,Scandium +/- Cobalt +/- PGE +/- Nickel,,,,,
Goschen,VIC,-35.5599,143.5316,Mine - under development,"Heavy mineral sands - Titanium, Zirconium, REE",,,,,
Goschen Central,VIC,-35.8787,143.3567,Mineral deposit,"Heavy mineral sands - Titanium, Zirconium, REE",,,,,
Governor Broome,WA,-34.2438,115.3993,Mineral deposit,"Heavy mineral sands - Titanium, Zirconium",,,,,
Great Australia Complex,QLD,-20.7206,140.5105,Mine - care and maintenance,Cobalt,,,,,
Great White,SA,-32.8286,134.7393,Mineral deposit,High Purity Alumina,,,,,
Greenbushes,WA,-33.8558,116.0668,Operating mine,Lithium +/- Tantalum +/- Niobium,,,,,
Greenmount,QLD,-21.0255,140.5297,Mineral deposit,Cobalt,,,,,
Grey Dam,WA,-30.4721,122.1492,Mineral deposit,Nickel +/- Cobalt +/- PGE,,,,,
Griffiths Hill,QLD,-17.1212,144.4080,Mineral deposit,Molybdenum +/- Rhenium,,,,,
Groote Eylandt,NT,-13.9922,136.4455,Operating mine,Manganese Ore,,,,,
Gunnawarra,QLD,-17.9485,145.1396,Mineral deposit,Nickel +/- Cobalt +/- PGE,,,,,
Halidon,SA,-34.8596,140.1320,Mineral deposit,"Heavy mineral sands - Titanium, Zirconium",,,,,
Hammerhead,SA,-32.7737,134.7520,Mineral deposit,High Purity Alumina,,,,,
Hampton,WA,-30.4663,122.0392,Mineral deposit,Nickel +/- Cobalt +/- PGE,,,,,
Happy Valley,WA,-33.5499,115.7162,Mineral deposit,"Heavy mineral sands - Titanium, Zirconium",,,,,
Hassell Beach,WA,-34.7737,118.4160,Mineral deposit,"Heavy mineral sands - Titanium, Zirconium",,,,,
Hatches Creek,NT,-20.8861,135.1880,Mineral deposit,Tungsten,,,,,
Hawkes Creek,TAS,-41.0960,144.8844,Operating mine,Silicon (High purity silica/quartz),,,,,
Hawkwood,QLD,-25.7881,150.8528,Mineral deposit,"Titanium, Vanadium",,,,,
Hillgrove,NSW,-30.5745,151.9009,Mine - care and maintenance,Antimony,,,,,
HJ Reef,QLD,-20.6746,140.4772,Mineral deposit,Silicon (High purity silica/quartz),,,,,
Holbrook,NSW,-35.7165,147.3616,Mineral deposit,Molybdenum +/- Rhenium,,,,,
Home of Bullion,NT,-21.5127,134.1564,Mineral deposit,Cobalt,,,,,
Homeville,NSW,-32.0105,147.0487,Mineral deposit,Nickel +/- Cobalt +/- PGE,,,,,
Honeymoon Well,WA,-26.9200,120.3790,Mineral deposit,Nickel +/- Cobalt +/- PGE,,,,,
Hopelands East,WA,-32.3963,115.9070,Mineral deposit,"Heavy mineral sands - Titanium, Zirconium",,,,,
Horseshoe,QLD,-20.9639,140.2842,Mineral deposit,Cobalt,,,,,
Huandot,NT,-13.0029,131.1036,Mineral deposit,Magnesium,,,,,
Hurlls Hill,NSW,-31.4809,152.8674,Mineral deposit,Scandium +/- Cobalt +/- PGE +/- Nickel,,,,,
Irwin-Coglia,WA,-29.1547,123.0460,Mineral deposit,Nickel +/- Cobalt +/- PGE,,,,,
Isabel (Herberton),QLD,-17.3856,145.3632,Mineral deposit,Indium,,,,,
Jacinth-Ambrosia,SA,-30.9076,132.2203,Operating mine,"Heavy mineral sands - Titanium, Zirconium",,,,,
Jamieson Tank,SA,-33.4720,136.3237,Mineral deposit,Manganese Ore,,,,,
Jasper Block,QLD,-20.6883,140.5143,Mineral deposit,Cobalt,,,,,
Jaws,NSW, -33.8565,142.0609,Mineral deposit,"Heavy mineral sands - Titanium, Zirconium",,,,,
Jericho,WA,-27.3899,120.5755,Mineral deposit,Nickel +/- Cobalt +/- PGE,,,,,
Jimberlana,WA,-32.2370,120.4542,Mineral deposit,Nickel +/- Cobalt +/- PGE,,,,,
John Galt,WA,-17.3458,128.2013,Mineral deposit,Rare Earth Elements (REE),,,,,
John Hill,QLD,-24.6961,150.8603,Mineral deposit,Molybdenum +/- Rhenium,,,,,
Julia Creek,QLD,-20.6391,141.8590,Mineral deposit,"Vanadium, Molybdenum",,,,,
Julimar,WA,-31.5216,116.2102,Mineral deposit,Platinum Group Elements (PGE) +/- Cobalt +/- Nickel,,,,,
Jurien,WA,-30.3447,115.1773,Mineral deposit,"Heavy mineral sands - Titanium, Zirconium",,,,,
Kalkaroo,SA,-31.7290,140.5250,Mineral deposit,Molybdenum +/- Rhenium,,,,,
Kalman,QLD,-21.0459,139.9670,Mineral deposit,Molybdenum +/- Rhenium,,,,,
Kara,TAS,-41.3096,145.7746,Operating mine,Tungsten,,,,,
Kara No. 2,TAS,-41.3105,145.8404,Mineral deposit,Tungsten,,,,,
Kathleen Valley,WA,-27.4694,120.5581,Mine - under development,Lithium +/- Tantalum +/- Niobium,,,,,
Kemerton,WA,-33.1781,115.7441,Mineral deposit,"Heavy mineral sands - Titanium, Zirconium",,,,,
Kerrigan-Bradley,WA,-32.6608,118.8313,Mineral deposit,High Purity Alumina,,,,,
Keysbrook,WA,-32.4687,115.9424,Operating mine,"Heavy mineral sands - Titanium, Zirconium",,,,,
Kiaka Hills ,WA ,-30.4529,116.0984,Mineral deposit,Silicon (High purity silica/quartz),,,,,
Kilba,WA,-22.7797,115.5524,Mineral deposit,Tungsten,,,,,
King Island Tailings,TAS,-40.0472,144.0734,Mineral deposit,Tungsten,,,,,
King Tamba,WA,-27.7108,117.2169,Mineral deposit,Lithium +/- Tantalum +/- Niobium,,,,,
Kookaburra Gully,SA,-34.4002,135.9107,Mineral deposit,Graphite,,,,,
Koppamurra,SA,-36.8278,140.8489,Mineral deposit,Rare Earth Elements (REE),,,,,
Koppio,SA,-34.4274,135.9072,Mineral deposit,Graphite,,,,,
Korella,QLD,-21.9388,139.9757,Mineral deposit,Rare Earth Elements (REE),,,,,
Kulwin-Woornack,VIC,-35.0568,142.6320,Mineral deposit,"Heavy mineral sands - Titanium, Zirconium",,,,,
Kunwarara,QLD,-22.8814,150.1869,Operating mine,Magnesium,,,,,
Kuridala,QLD,-21.2751,140.5060,Mineral deposit,Cobalt,,,,,
Lagoon Hill,QLD,-23.0744,150.2192,Mineral deposit,Nickel +/- Cobalt +/- PGE,,,,,
Lake Hope,WA,-32.4100,120.2500,Mineral deposit,High Purity Alumina,,,,,
Lake Maitland,WA,-27.1772,121.0819,Mine - under development,Vanadium,,,,,
Lake Rebecca,WA,-30.0655,122.3570,Mineral deposit,Nickel +/- Cobalt +/- PGE,,,,,
Lanfranchi,WA,-31.5055,121.8429,Mine - care and maintenance,Nickel +/- Cobalt +/- PGE,,,,,
Larkin Find,WA,-29.4663,122.2577,Mineral deposit,Nickel +/- Cobalt +/- PGE,,,,,
Lava Plains,QLD,-18.4363,144.7563,Mineral deposit,High Purity Alumina,,,,,
Lawlers,WA,-28.0967,120.6405,Mineral deposit,Magnesium,,,,,
Leinster,WA,-28.1674,120.9166,Operating mine,Nickel +/- Cobalt +/- PGE,,,,,
Lighthouse,QLD,-18.3944,144.1733,Mine - care and maintenance,Silicon (High purity silica/quartz),,,,,
Lucky Bay,WA,-28.0294,114.1831,Operating mine,Titanium,,,,,
Lucky Break,QLD,-19.4796,145.6908,Mineral deposit,Nickel +/- Cobalt +/- PGE,,,,,
Lyons,WA,-23.9875,116.3505,Mineral deposit,Rare Earth Elements (REE),,,,,
Lyons River,TAS,-41.2185,145.4014,Mineral deposit,Magnesium,,,,,
Maggie Hays,WA,-32.2225,120.5170,Mine - care and maintenance,Nickel +/- Cobalt +/- PGE,,,,,
Main Creek,TAS,-41.5398,145.1618,Mineral deposit,Magnesium,,,,,
Maitland,QLD,-18.9763,144.4036,Mineral deposit,Molybdenum +/- Rhenium,,,,,
Malinda,WA,-24.5056,116.2722,Mineral deposit,Lithium +/- Tantalum +/- Niobium,,,,,
Mangaroon,WA,-23.9560,116.0330,Mineral deposit,Rare Earth Elements (REE),,,,,
Manna,WA,-30.8700,122.5300,Mineral deposit,Lithium +/- Tantalum +/- Niobium,,,,,
Maralla Road,WA,-31.7388,115.9704,Operating mine,Silicon (High purity silica/quartz),,,,,
Marble Bar,WA,-21.1881,119.8640,Mineral deposit,Lithium +/- Tantalum +/- Niobium,,,,,
Maroochydore,WA,-22.1991,122.3141,Mineral deposit,Cobalt,,,,,
Marriott,WA,-28.4491,120.9915,Mineral deposit,Nickel +/- Cobalt +/- PGE,,,,,
Mary Kathleen,QLD,-20.7155,140.0040,Mineral deposit,Rare Earth Elements (REE),,,,,
Massidon,NSW,-33.1306,141.3444,Mineral deposit,"Heavy mineral sands - Titanium, Zirconium",,,,,
Maureen,QLD,-18.0030,143.4270,Mineral deposit,Molybdenum +/- Rhenium,,,,,
Mawson,WA,-30.7375,124.4468,Mineral deposit,Nickel +/- Cobalt +/- PGE,,,,,
May Downs,Qld ,-20.6570,139.4149,Mineral deposit,Silicon (High purity silica/quartz),,,,,
Maydena,TAS,-42.7768,146.5894,Mineral deposit,Silicon (High purity silica/quartz),,,,,
McCabe,QLD,-21.0673,140.4894,Mineral deposit,Cobalt,,,,,
McCalls,WA,-30.9578,115.9294,Mineral deposit,"Heavy mineral sands - Titanium, Zirconium",,,,,
McIntosh,WA,-17.6111,127.9626,Mineral deposit,Graphite,,,,,
Meckering,WA,-31.6847,117.0608,Mineral deposit,High Purity Alumina,,,,,
Medcalf,WA,-32.5338,120.7931,Mineral deposit,"Titanium, Vanadium",,,,,
Meecharra,WA,-22.0766,120.4043,Mineral deposit,Manganese Ore,,,,,
Meentheena,WA,-21.2368,120.4742,Mineral deposit,Fluorine,,,,,
Melba Flats,TAS,-41.8500,145.3833,Mineral deposit,Nickel +/- Cobalt +/- PGE,,,,,
Mercury,VIC,-34.8989,142.3522,Mineral deposit,"Heavy mineral sands - Titanium, Zirconium",,,,,
Merlin,QLD,-21.6533,140.4931,Mine - care and maintenance,Molybdenum +/- Rhenium,,,,,
MG14,SA,-31.4346,137.1509,Mineral deposit,Cobalt,,,,,
Millennium,QLD,-20.5968,140.1943,Mineral deposit,Cobalt,,,,,
Milo,QLD,-20.7587,140.2222,Mineral deposit,Rare Earth Elements (REE),,,,,
Mindarie,SA,-34.7563,140.1389,Mine - under development,"Heavy mineral sands - Titanium, Zirconium",,,,,
Mindijup,WA,-34.7689,118.0768,Operating mine,Silicon (High purity silica/quartz),,,,,
Mineral Patch Hill,WA,-29.0369,122.9846,Mineral deposit,Nickel +/- Cobalt +/- PGE,,,,,
Miriam,WA,-31.0712,121.0878,Mineral deposit,Nickel +/- Cobalt +/- PGE,,,,,
Mission Sill,WA,-32.2016,121.6646,Mineral deposit,Nickel +/- Cobalt +/- PGE,,,,,
Mitre Hill,VIC,-37.2254,140.9960,Mineral deposit,Rare Earth Elements (REE),,,,,
Moina,TAS,-41.4885,146.0802,Mineral deposit,Tungsten,,,,,
Molyhil,NT,-22.7589,135.7503,Mine - under development,"Tungsten, Molybdenum",,,,,
Monogorilby,QLD,-26.0644,151.0263,Mineral deposit,"Titanium, Vanadium",,,,,
Moora,WA,-30.5153,116.0345,Operating mine,Silicon (High purity silica/quartz),,,,,
Mount Cannindah,QLD,-24.6697,151.2734,Mineral deposit,Molybdenum +/- Rhenium,,,,,
Mount Carbine,QLD,-16.5241,145.1321,Operating mine,Tungsten,,,,,
Mount Cattlin,WA,-33.5625,120.0340,Operating mine,Lithium +/- Tantalum +/- Niobium,,,,,
Mount Cobalt,QLD,-26.1962,152.2759,Mineral deposit,Nickel +/- Cobalt +/- PGE,,,,,
Mount Deans,WA,-32.3045,121.7851,Mineral deposit,Lithium +/- Tantalum +/- Niobium,,,,,
Mount Dromedary,QLD,-19.6180,140.2160,Mineral deposit,Graphite,,,,,
Mount Fitch,NT,-12.9468,130.9483,Mineral deposit,Nickel +/- Cobalt +/- PGE,,,,,
Mount Holland,WA,-32.0876,119.7485,Mine - under development,Lithium +/- Tantalum +/- Niobium,,,,,
Mount Hope,SA,-34.1629,135.3798,Mineral deposit,High Purity Alumina,,,,,
Mount Hutton,SA,-30.4890,138.3020,Mineral deposit,Magnesium,,,,,
Mount Ida,WA,-29.0940,120.4610,Mineral deposit,Lithium +/- Tantalum +/- Niobium,,,,,
Mount Isa,QLD,-20.7434,139.4783,Operating mine,Cobalt,,,,,
Mount Jewell,WA,-30.1804,121.4560,Mineral deposit,Nickel +/- Cobalt +/- PGE,,,,,
Mount Keith,WA,-27.2296,120.5417,Operating mine,Nickel +/- Cobalt +/- PGE,,,,,
Mount Lindsay,TAS,-41.6973,145.3286,Mineral deposit,Tungsten,,,,,
Mount Margaret,WA,-28.3119,120.9861,Mineral deposit,Nickel +/- Cobalt +/- PGE,,,,,
Mount Marion,WA,-31.0738,121.4611,Operating mine,Lithium +/- Tantalum +/- Niobium,,,,,
Mount Martin,WA,-31.0089,121.6800,Mineral deposit,Nickel +/- Cobalt +/- PGE,,,,,
Mount Mulcahy,WA,-27.0534,117.6970,Mineral deposit,Cobalt,,,,,
Mount Mulgine,WA,-29.1785,116.9774,Mineral deposit,"Tungsten, Molybdenum",,,,,
Mount Oxide,QLD,-19.4787,139.3883,Mineral deposit,Cobalt,,,,,
Mount Paynter,NSW,-35.9004,147.6301,Mineral deposit,Tungsten,,,,,
Mount Peak,QLD,-21.6290,133.2954,Mineral deposit,"Titanium, Vanadium",,,,,
Mount Playfair,SA,-30.3980,138.2124,Mineral deposit,Magnesium,,,,,
Mount Rove,WA,-22.0418,120.7972,Mineral deposit,Manganese Ore,,,,,
Mount Sholl,WA,-20.9123,116.8921,Mineral deposit,Nickel +/- Cobalt +/- PGE,,,,,
Mount Tabor,QLD,-25.0566,147.5774,Mineral deposit,Cobalt,,,,,
Mount Thirsty,WA,-32.1019,121.6478,Mineral deposit,Nickel +/- Cobalt +/- PGE,,,,,
Mount Weld,WA,-28.8599,122.5475,Operating mine,"REE, Zirconium, Niobium, +/- Hafnium, Lithium, Tantalum, Gallium",,,,,
Mount Windarra,WA,-28.4852,122.2330,Mine - care and maintenance,Nickel +/- Cobalt +/- PGE,,,,,
Muchea,WA,-31.4946,115.8822,Mineral deposit,Silicon (High purity silica/quartz),,,,,
Mulga Downs,WA,-22.1084,118.5722,Mineral deposit,Manganese Ore,,,,,
Mulga Rock,WA,-29.9043,123.5920,Mineral deposit,Scandium +/- Cobalt +/- PGE +/- Nickel,,,,,
Munglinup,WA,-33.6635,120.8586,Mine - under development,Graphite,,,,,
Munni Munni,WA,-21.1170,116.8296,Mineral deposit,Platinum Group Elements (PGE) +/- Cobalt +/- Nickel,,,,,
Murrin Murrin,WA,-28.7668,121.8930,Operating mine,Nickel +/- Cobalt +/- PGE,,,,,
Mutooroo,SA,-32.2496,140.9380,Mineral deposit,Cobalt,,,,,
Myrtle Springs,SA,-30.4169,138.2258,Operating mine,Magnesium,,,,,
Nanadie Well,WA,-27.1599,118.9485,Mineral deposit,Nickel +/- Cobalt +/- PGE,,,,,
Narraburra,NSW,-34.3162,147.5551,Mineral deposit,"REE, Zirconium, Niobium, +/- Hafnium, Lithium, Tantalum, Gallium",,,,,
Nebo-Babel,WA,-26.0954,127.7274,Mine - under development,Nickel +/- Cobalt +/- PGE,,,,,
Nepean,WA,-31.1637,121.0857,Mineral deposit,Nickel +/- Cobalt +/- PGE,,,,,
New Hope,QLD,-21.7293,140.4940,Mineral deposit,Cobalt,,,,,
Nicholas Downs,WA,-22.7739,120.8943,Mine - care and maintenance,Manganese Ore,,,,,
Nico Young,NSW,-34.1725,148.0808,Mineral deposit,Nickel +/- Cobalt +/- PGE,,,,,
Night Train,WA,-17.5804,123.1131,Mineral deposit,"Heavy mineral sands - Titanium, Zirconium",,,,,
Niobe,WA,-27.7076,117.2671,Mineral deposit,Lithium +/- Tantalum +/- Niobium,,,,,
NiWest,WA,-28.8633,121.7930,Mineral deposit,Nickel +/- Cobalt +/- PGE,,,,,
NMBD,WA,-32.4504,119.6801,Mineral deposit,Nickel +/- Cobalt +/- PGE,,,,,
Nobles Nob,NT,-19.7115,134.2901,Mine - under development,Bismuth +/- Cobalt +/- Indium,,,,,
Nolans Bore,NT,-22.5821,133.2399,Mine - under development,Rare Earth Elements (REE),,,,,
North Stanmore,WA,-27.3457,117.9099,Mineral deposit,Rare Earth Elements (REE),,,,,
North Telfer,WA,-21.3780,122.2489,Mineral deposit,Cobalt,,,,,
Northcote,QLD,-17.0058,145.1571,Mine - under development,Antimony,,,,,
Northern Operations,WA,-31.1690,121.6514,Operating mine,Nickel +/- Cobalt +/- PGE,,,,,
Nova,WA,-29.9217,115.3661,Mineral deposit,Silicon (High purity silica/quartz),,,,,
Nova-Bollinger,WA,-31.8199,123.1924,Operating mine,Nickel +/- Cobalt +/- PGE,,,,,
Nyngan,NSW,-31.6090,146.9937,Mineral deposit,Scandium +/- Cobalt +/- PGE +/- Nickel,,,,,
Oakover,WA,-23.3066,120.6807,Mineral deposit,Manganese Ore,,,,,
Oar,SA,-33.8036,135.5132,Mineral deposit,Graphite,,,,,
O'Callaghans,WA,-21.7921,122.2585,Mineral deposit,Tungsten,,,,,
O'Connor,WA,-33.1871,122.8422,Mineral deposit,Rare Earth Elements (REE),,,,,
Olympia,WA,-26.8204,122.1873,Mineral deposit,Nickel +/- Cobalt +/- PGE,,,,,
Olympic Dam,SA,-30.4403,136.8894,Operating mine,Rare Earth Elements (REE),,,,,
Overlander,QLD,-21.0338,139.9095,Mineral deposit,Cobalt,,,,,
Owendale,NSW,-32.5750,147.3844,Mine - under development,Scandium +/- Cobalt +/- PGE +/- Nickel,,,,,
Pacific Express,NSW,-31.5205,152.7904,Mineral deposit,Scandium +/- Cobalt +/- PGE +/- Nickel,,,,,
Panton,WA,-17.7515,127.8316,Mineral deposit,Platinum Group Elements (PGE) +/- Cobalt +/- Nickel,,,,,
Parks Reef,WA,-26.8450,117.7392,Mineral deposit,Platinum Group Elements (PGE) +/- Cobalt +/- Nickel,,,,,
Peak Hill,WA,-25.4572,118.6050,Mineral deposit,Manganese Ore,,,,,
Peko Tailings,NT,-19.6782,134.2838,Operating mine,Cobalt,,,,,
Pelican,WA,-28.7789,122.5753,Mineral deposit,Nickel +/- Cobalt +/- PGE,,,,,
Perponda South,SA,-32.3074,138.4387,Mineral deposit,"Heavy mineral sands - Titanium, Zirconium",,,,,
Perry Creek,QLD,-18.7297,145.3347,Mineral deposit,Tungsten,,,,,
Phoenix,NSW,-34.4685,143.3073,Mineral deposit,"Heavy mineral sands - Titanium, Zirconium",,,,,
Pilgangoora,WA,-21.0723,118.8953,Operating mine,Lithium +/- Tantalum +/- Niobium,,,,,
Pinnacles,QLD,-17.7021,145.1711,Mineral deposit,Fluorine,,,,,
Pinnacles,WA,-30.2758,122.3242,Mineral deposit,Nickel +/- Cobalt +/- PGE,,,,,
Pioneer,WA,-31.9697,121.6431,Mineral deposit,Nickel +/- Cobalt +/- PGE,,,,,
Pioneer Dome,WA,-31.9103,121.6376,Mineral deposit,Lithium +/- Tantalum +/- Niobium,,,,,
Portia,SA,-31.4339,140.4511,Mineral deposit,Cobalt,,,,,
Princhester,QLD,-22.8620,149.9770,Mineral deposit,Magnesium,,,,,
Prospect Ridge-Arthur River,TAS,-41.1813,145.4488,Mineral deposit,Magnesium,,,,,
Pug Hill,SA,-30.3094,138.1136,Mineral deposit,Magnesium,,,,,
Puwanapi,NT,-11.7400,130.0700,Mineral deposit,"Heavy mineral sands - Titanium, Zirconium",,,,,
Pyke Hill,WA,-29.0521,122.1529,Mineral deposit,Nickel +/- Cobalt +/- PGE,,,,,
Quartz Hill,QLD,-18.0931,144.2399,Mineral deposit,Silicon (High purity silica/quartz),,,,,
Quicksilver,WA,-32.7435,118.6678,Mineral deposit,Nickel +/- Cobalt +/- PGE,,,,,
Radio Hill,WA,-20.9825,116.8648,Mine - care and maintenance,Nickel +/- Cobalt +/- PGE,,,,,
Range Well,WA,-26.8212,117.7396,Mineral deposit,"Chromium +/- Cobalt, +/- PGE +/- Nickel",,,,,
Ravensthorpe,WA,-33.6421,120.3963,Operating mine,Nickel +/- Cobalt +/- PGE,,,,,
Renner West,NT,-18.3373,133.6545,Mineral deposit,Manganese Ore,,,,,
Richmond,QLD,-20.4652,142.8024,Mine - under development,"Vanadium, Molybdenum",,,,,
Ripon Hills,WA,-21.2145,120.7433,Mineral deposit,Manganese Ore,,,,,
Riverina,WA,-29.7493,120.5596,Mineral deposit,Nickel +/- Cobalt +/- PGE,,,,,
Rocklands,QLD,-20.6724,140.3636,Mine - care and maintenance,Cobalt,,,,,
Rockley,NSW,-33.7168,149.5199,Mineral deposit,Silicon (High purity silica/quartz),,,,,
Rosie,WA,-27.6246,122.0143,Mineral deposit,Nickel +/- Cobalt +/- PGE,,,,,
Rover 1,NT,-20.0021,133.6567,Mine - under development,Bismuth +/- Cobalt +/- Indium,,,,,
Ruth Well,WA,-20.8684,116.8655,Mineral deposit,Nickel +/- Cobalt +/- PGE,,,,,
Saint Elmo,QLD,-20.5704,141.8848,Mine - under development,"Vanadium, Molybdenum",,,,,
Saints,WA,-29.9986,121.1853,Mineral deposit,Nickel +/- Cobalt +/- PGE,,,,,
Samarkand,NT,-22.7322,136.0899,Mineral deposit,Tungsten,,,,,
Savage River,TAS,-41.4880,145.2044,Operating mine,Vanadium,,,,,
Savannah,WA,-17.3526,128.0277,Operating mine,Nickel +/- Cobalt +/- PGE,,,,,
Sconi,QLD,-18.9721,144.9267,Mine - under development,Scandium +/- Cobalt +/- PGE +/- Nickel,,,,,
Scott River,WA,-34.2601,115.3346,Mineral deposit,"Heavy mineral sands - Titanium, Zirconium",,,,,
Screechowl Creek,SA,-29.8941,137.6598,Mineral deposit,Magnesium,,,,,
Seymour,TAS,-41.7451,148.2901,Mineral deposit,Fluorine,,,,,
Sherlock Bay,WA,-20.8112,117.5406,Mineral deposit,Nickel +/- Cobalt +/- PGE,,,,,
Si2 North,QLD,-15.0000,145.2000,Mineral deposit,Silicon (High purity silica/quartz),,,,,
Siberia,WA,-30.2476,120.9321,Mineral deposit,Scandium +/- Cobalt +/- PGE +/- Nickel,,,,,
Sill 80,NT,-14.9372,134.0357,Operating mine,Titanium,,,,,
Silver Knight,WA,-31.5915,123.4410,Mineral deposit,Nickel +/- Cobalt +/- PGE,,,,,
Sinclair,WA,-28.3741,120.8645,Mineral deposit,Nickel +/- Cobalt +/- PGE,,,,,
Siviour,SA,-33.9180,136.4283,Mine - under development,Graphite,,,,,
Slopeaway,QLD,-22.9385,149.8306,Mineral deposit,Nickel +/- Cobalt +/- PGE,,,,,
Sonoran,SA,-30.9473,132.2968,Mineral deposit,"Heavy mineral sands - Titanium, Zirconium",,,,,
South Kambalda,WA,-31.6278,121.6613,Mine - care and maintenance,Nickel +/- Cobalt +/- PGE,,,,,
South Woodie Woodie,WA,-22.3405,121.2261,Mineral deposit,Manganese Ore,,,,,
Spargoville,WA,-31.3181,121.4917,Mineral deposit,Nickel +/- Cobalt +/- PGE,,,,,
Sparkler A,WA,-34.3878,116.7146,Mineral deposit,Silicon (High purity silica/quartz),,,,,
Speewah,WA,-16.3614,127.9495,Mineral deposit,"Titanium, Vanadium",,,,,
Speewah Valley,WA,-16.4041,127.9782,Mineral deposit,Fluorine,,,,,
Spinifex Ridge,WA,-20.8875,120.1118,Mine - care and maintenance,Molybdenum +/- Rhenium,,,,,
Splinter Rock,WA,-33.3114,123.0831,Mineral deposit,Rare Earth Elements (REE),,,,,
Split Rocks,WA,-31.7657,119.5868,Mineral deposit,Lithium +/- Tantalum +/- Niobium,,,,,
Spotted Quoll ,WA,-32.4782,119.6778,Operating mine,Nickel +/- Cobalt +/- PGE,,,,,
Springdale,WA,-33.8938,120.3748,Mineral deposit,Graphite,,,,,
St Dizier,TAS,-41.8239,145.1352,Mineral deposit,Tungsten,,,,,
Stanton,NT,-16.7300,137.7500,Mineral deposit,Nickel +/- Cobalt +/- PGE,,,,,
Stormont,TAS,-41.4978,146.0370,Mineral deposit,Bismuth +/- Cobalt +/- Indium,,,,,
Sugarbag Hill ,Qld ,-18.4829,143.6457,Mineral deposit,Silicon (High purity silica/quartz),,,,,
Sunrise,NSW,-32.7567,147.4196,Mine - under development,Scandium +/- Cobalt +/- PGE +/- Nickel,,,,,
Tallebung,NSW,-32.7381,146.5807,Mineral deposit,Tungsten,,,,,
Tambellup,WA,-34.0398,117.5314,Mineral deposit,High Purity Alumina,,,,,
Tampu,WA,-30.2232,117.8105,Mineral deposit,High Purity Alumina,,,,,
Termination Hill,SA,-30.2246,138.0242,Mineral deposit,Magnesium,,,,,
The Horn,WA,-28.1674,120.9166,Mineral deposit,Platinum Group Elements (PGE) +/- Cobalt +/- Nickel,,,,,
Thuddungra,NSW,-34.1764,148.0505,Operating mine,Magnesium,,,,,
Thunderbird,WA,-17.4317,122.9679,Operating mine,"Heavy mineral sands - Titanium, Zirconium",,,,,
Tiger,SA,-32.9114,134.7380,Mineral deposit,High Purity Alumina,,,,,
TIO,QLD,-17.0960,144.2582,Mineral deposit,Titanium,,,,,
Toolebuc,QLD,-20.4828,142.8510,Mineral deposit,"Vanadium, Molybdenum",,,,,
Torrington,NSW,-29.2697,151.6563,Mineral deposit,Tungsten,,,,,
Tower,WA,-25.6230,117.1540,Mineral deposit,Rare Earth Elements (REE),,,,,
Tripitaka,SA,-31.5451,132.8047,Mineral deposit,"Heavy mineral sands - Titanium, Zirconium",,,,,
Triple Four,QLD,-22.8287,149.8750,Mineral deposit,Magnesium,,,,,
Trough Well,WA,-30.6732,118.8948,Mineral deposit,Nickel +/- Cobalt +/- PGE,,,,,
Typhoon,SA,-30.9319,132.2536,Mineral deposit,"Heavy mineral sands - Titanium, Zirconium",,,,,
Uley 2,SA,-34.7992,135.7019,Mine - under development,Graphite,,,,,
Unaly Hill,WA,-28.3742,118.9470,Mineral deposit,"Titanium, Vanadium",,,,,
Unicorn,VIC,-36.3386,147.9896,Mineral deposit,Molybdenum +/- Rhenium,,,,,
Urquhart,QLD,-12.7500,141.8000,Mineral deposit,"Heavy mineral sands - Titanium, Zirconium",,,,,
Venus ,WA,-27.8150,120.7040,Operating mine,Nickel +/- Cobalt +/- PGE,,,,,
Victory Bore,WA,-28.2619,118.9890,Mineral deposit,Vanadium,,,,,
Vulcan,QLD,-21.0506,140.5476,Mineral deposit,Cobalt,,,,,
Walford Creek,QLD,-17.7858,138.2847,Mineral deposit,Nickel +/- Cobalt +/- PGE,,,,,
Waterloo,WA,-28.1438,120.9780,Mine - care and maintenance,Nickel +/- Cobalt +/- PGE,,,,,
Watershed,QLD,-16.3393,144.8808,Mineral deposit,Tungsten,,,,,
Wedderburn,VIC,-36.2167,143.6998,Mineral deposit,"Heavy mineral sands - Titanium, Zirconium, REE",,,,,
West Eucla,WA,-32.1852,123.1998,Mineral deposit,"Heavy mineral sands - Titanium, Zirconium",,,,,
West Jordan,WA,-27.0167,120.4361,Mineral deposit,Nickel +/- Cobalt +/- PGE,,,,,
West Lynn,NSW,-31.4982,147.0391,Mineral deposit,Nickel +/- Cobalt +/- PGE,,,,,
West Mount Hut,SA,-30.0081,137.7763,Mineral deposit,Magnesium,,,,,
West Orient,QLD,-17.3455,145.1841,Mineral deposit,Indium,,,,,
White Cloud,WA,-30.8363,117.6691,Mineral deposit,High Purity Alumina,,,,,
White Hill,WA,-26.7321,116.3843,Mineral deposit,Silicon (High purity silica/quartz),,,,,
White Rock,NSW,-34.4989,148.9050,Mineral deposit,Tungsten,,,,,
White Violet,NT,-22.7316,136.0725,Mineral deposit,Tungsten,,,,,
Whitewash,QLD,-24.8065,150.8750,Mineral deposit,Molybdenum +/- Rhenium,,,,,
Widgie North,WA,-31.4559,121.5390,Mineral deposit,Nickel +/- Cobalt +/- PGE,,,,,
Widgie South,WA,-31.5191,121.5875,Mineral deposit,Nickel +/- Cobalt +/- PGE,,,,,
Wilco South,SA,-33.2969,136.4440,Mineral deposit,Graphite,,,,,
Wilconi,WA,-26.6000,120.1965,Mineral deposit,Nickel +/- Cobalt +/- PGE,,,,,
Wim 100,VIC,-36.9572,141.9258,Mineral deposit,"Heavy mineral sands - Titanium, Zirconium, REE",,,,,
Wim 150,VIC,-36.8043,142.3678,Mineral deposit,"Heavy mineral sands - Titanium, Zirconium, REE",,,,,
Winchelsea Island,NT,-13.7690,136.5080,Mineral deposit,Manganese Ore,,,,,
Winchester,NSW,-33.3400,142.3100,Mineral deposit,"Heavy mineral sands - Titanium, Zirconium",,,,,
Winchester,NT,-13.0462,131.0612,Mineral deposit,Magnesium,,,,,
Windabout,SA,-31.3894,137.1333,Mineral deposit,Cobalt,,,,,
Windanya-Blue Dam,WA,-30.3800,121.2538,Mineral deposit,Nickel +/- Cobalt +/- PGE,,,,,
Windimurra,WA,-28.2916,118.5300,Mine - care and maintenance,Vanadium,,,,,
Wingellina,WA,-26.0396,128.9393,Mineral deposit,Nickel +/- Cobalt +/- PGE,,,,,
Witchelina,SA,-30.1176,137.9905,Mineral deposit,Magnesium,,,,,
Wodgina,WA,-21.1746,118.6764,Operating mine,Lithium +/- Tantalum +/- Niobium,,,,,
Wolfram Camp,QLD,-17.0845,144.9694,Mine - care and maintenance,"Tungsten, Molybdenum",,,,,
Wonnerup,WA,-33.6481,115.4567,Operating mine,"Heavy mineral sands - Titanium, Zirconium",,,,,
Woodie Woodie,WA,-21.6388,121.2355,Operating mine,Manganese Ore,,,,,
Yaamba,QLD,-23.0786,150.3010,Mineral deposit,Magnesium,,,,,
Yabbie,NSW,-33.5200,142.5000,Mineral deposit,"Heavy mineral sands - Titanium, Zirconium",,,,,
Yakabindie ,WA,-27.4555,120.5775,Operating mine,Nickel +/- Cobalt +/- PGE,,,,,
Yalbra,WA,-25.5611,116.3548,Mineral deposit,Graphite,,,,,
Yalyalup,WA,-33.6897,115.4723,Operating mine,"Heavy mineral sands - Titanium, Zirconium",,,,,
Yanco Glen,NSW,-31.6566,141.5385,Mineral deposit,Tungsten,,,,,
Yangibana,WA,-23.9061,116.2959,Mine - under development,Rare Earth Elements (REE),,,,,
Yarawindah Brook,WA,-31.0908,116.2609,Mineral deposit,Platinum Group Elements (PGE) +/- Cobalt +/- Nickel,,,,,
Yarrabubba,WA,-27.0244,118.7056,Mineral deposit,"Titanium, Vanadium",,,,,
Yeelirrie,WA,-27.1797,119.9045,Mineral deposit,Vanadium,,,,,
Yendon,VIC,-37.6572,143.9800,Mine - care and maintenance,High Purity Alumina,,,,,
Yeoval,NSW,-32.7299,148.6420,Mineral deposit,Molybdenum +/- Rhenium,,,,,
Yerilla,WA,-29.4849,121.9050,Mineral deposit,Nickel +/- Cobalt +/- PGE,,,,,
Youanmi,WA,-28.6089,118.7705,Mineral deposit,"Titanium, Vanadium",,,,,
Young Australian,QLD,-21.3378,140.4067,Mineral deposit,Cobalt,,,,,
Zeehan,TAS,-41.8720,145.3260,Mineral deposit,Indium,,,,,